{
  "type": "FeatureCollection",
  "features": [
    {
      "type": "Feature",
      "id": "AL_1",
      "properties": {
        "st": "AL",
        "state": "Alabama",
        "city": "Birmingham",
        "wfo": "BMX",
        "gridX": 59,
        "gridY": 84
      },
      "geometry": {
        "type": "Point",
        "coordinates": [
          -86.8104,
          33.5186
        ]
      }
    },
    {
      "type": "Feature",
      "id": "AL_2",
      "properties": {
        "st": "AL",
        "state": "Alabama",
        "city": "Huntsville",
        "wfo": "HUN",
        "gridX": 63,
        "gridY": 43
      },
      "geometry": {
        "type": "Point",
        "coordinates": [
          -86.5861,
          34.7304
        ]
      }
    },
    {
      "type": "Feature",
      "id": "AL_3",
      "properties": {
        "st": "AL",
        "state": "Alabama",
        "city": "Mobile",
        "wfo": "MOB",
        "gridX": 52,
        "gridY": 67
      },
      "geometry": {
        "type": "Point",
        "coordinates": [
          -88.0399,
          30.6954
        ]
      }
    },
    {
      "type": "Feature",
      "id": "AL_4",
      "properties": {
        "st": "AL",
        "state": "Alabama",
        "city": "Montgomery",
        "wfo": "BMX",
        "gridX": 81,
        "gridY": 35
      },
      "geometry": {
        "type": "Point",
        "coordinates": [
          -86.3077,
          32.3792
        ]
      }
    },
    {
      "type": "Feature",
      "id": "AR_1",
      "properties": {
        "st": "AR",
        "state": "Arkansas",
        "city": "Little Rock",
        "wfo": "LZK",
        "gridX": 82,
        "gridY": 73
      },
      "geometry": {
        "type": "Point",
        "coordinates": [
          -92.2896,
          34.7465
        ]
      }
    },
    {
      "type": "Feature",
      "id": "AR_2",
      "properties": {
        "st": "AR",
        "state": "Arkansas",
        "city": "Fayetteville",
        "wfo": "TSA",
        "gridX": 107,
        "gridY": 101
      },
      "geometry": {
        "type": "Point",
        "coordinates": [
          -94.1719,
          36.0822
        ]
      }
    },
    {
      "type": "Feature",
      "id": "AR_3",
      "properties": {
        "st": "AR",
        "state": "Arkansas",
        "city": "Fort Smith",
        "wfo": "TSA",
        "gridX": 99,
        "gridY": 70
      },
      "geometry": {
        "type": "Point",
        "coordinates": [
          -94.3985,
          35.3859
        ]
      }
    },
    {
      "type": "Feature",
      "id": "AR_4",
      "properties": {
        "st": "AR",
        "state": "Arkansas",
        "city": "Jonesboro",
        "wfo": "MEG",
        "gridX": 17,
        "gridY": 97
      },
      "geometry": {
        "type": "Point",
        "coordinates": [
          -90.7043,
          35.8423
        ]
      }
    },
    {
      "type": "Feature",
      "id": "AZ_1",
      "properties": {
        "st": "AZ",
        "state": "Arizona",
        "city": "Phoenix",
        "wfo": "PSR",
        "gridX": 159,
        "gridY": 58
      },
      "geometry": {
        "type": "Point",
        "coordinates": [
          -112.074,
          33.4484
        ]
      }
    },
    {
      "type": "Feature",
      "id": "AZ_2",
      "properties": {
        "st": "AZ",
        "state": "Arizona",
        "city": "Tucson",
        "wfo": "TWC",
        "gridX": 91,
        "gridY": 49
      },
      "geometry": {
        "type": "Point",
        "coordinates": [
          -110.9747,
          32.2226
        ]
      }
    },
    {
      "type": "Feature",
      "id": "AZ_3",
      "properties": {
        "st": "AZ",
        "state": "Arizona",
        "city": "Yuma",
        "wfo": "PSR",
        "gridX": 61,
        "gridY": 37
      },
      "geometry": {
        "type": "Point",
        "coordinates": [
          -114.6277,
          32.6927
        ]
      }
    },
    {
      "type": "Feature",
      "id": "AZ_4",
      "properties": {
        "st": "AZ",
        "state": "Arizona",
        "city": "Flagstaff",
        "wfo": "FGZ",
        "gridX": 74,
        "gridY": 89
      },
      "geometry": {
        "type": "Point",
        "coordinates": [
          -111.6513,
          35.1983
        ]
      }
    },
    {
      "type": "Feature",
      "id": "CA_1",
      "properties": {
        "st": "CA",
        "state": "California",
        "city": "Los Angeles",
        "wfo": "LOX",
        "gridX": 155,
        "gridY": 45
      },
      "geometry": {
        "type": "Point",
        "coordinates": [
          -118.2437,
          34.0522
        ]
      }
    },
    {
      "type": "Feature",
      "id": "CA_2",
      "properties": {
        "st": "CA",
        "state": "California",
        "city": "San Francisco",
        "wfo": "MTR",
        "gridX": 85,
        "gridY": 105
      },
      "geometry": {
        "type": "Point",
        "coordinates": [
          -122.4194,
          37.7749
        ]
      }
    },
    {
      "type": "Feature",
      "id": "CA_3",
      "properties": {
        "st": "CA",
        "state": "California",
        "city": "San Diego",
        "wfo": "SGX",
        "gridX": 57,
        "gridY": 14
      },
      "geometry": {
        "type": "Point",
        "coordinates": [
          -117.1611,
          32.7157
        ]
      }
    },
    {
      "type": "Feature",
      "id": "CA_4",
      "properties": {
        "st": "CA",
        "state": "California",
        "city": "Sacramento",
        "wfo": "STO",
        "gridX": 41,
        "gridY": 68
      },
      "geometry": {
        "type": "Point",
        "coordinates": [
          -121.4944,
          38.5816
        ]
      }
    },
    {
      "type": "Feature",
      "id": "CO_1",
      "properties": {
        "st": "CO",
        "state": "Colorado",
        "city": "Denver",
        "wfo": "BOU",
        "gridX": 63,
        "gridY": 62
      },
      "geometry": {
        "type": "Point",
        "coordinates": [
          -104.9903,
          39.7392
        ]
      }
    },
    {
      "type": "Feature",
      "id": "CO_2",
      "properties": {
        "st": "CO",
        "state": "Colorado",
        "city": "Colorado Springs",
        "wfo": "PUB",
        "gridX": 90,
        "gridY": 91
      },
      "geometry": {
        "type": "Point",
        "coordinates": [
          -104.8214,
          38.8339
        ]
      }
    },
    {
      "type": "Feature",
      "id": "CO_3",
      "properties": {
        "st": "CO",
        "state": "Colorado",
        "city": "Fort Collins",
        "wfo": "BOU",
        "gridX": 63,
        "gridY": 100
      },
      "geometry": {
        "type": "Point",
        "coordinates": [
          -105.0844,
          40.5853
        ]
      }
    },
    {
      "type": "Feature",
      "id": "CO_4",
      "properties": {
        "st": "CO",
        "state": "Colorado",
        "city": "Grand Junction",
        "wfo": "GJT",
        "gridX": 95,
        "gridY": 102
      },
      "geometry": {
        "type": "Point",
        "coordinates": [
          -108.5506,
          39.0639
        ]
      }
    },
    {
      "type": "Feature",
      "id": "CT_1",
      "properties": {
        "st": "CT",
        "state": "Connecticut",
        "city": "Hartford",
        "wfo": "BOX",
        "gridX": 22,
        "gridY": 54
      },
      "geometry": {
        "type": "Point",
        "coordinates": [
          -72.6734,
          41.7658
        ]
      }
    },
    {
      "type": "Feature",
      "id": "CT_2",
      "properties": {
        "st": "CT",
        "state": "Connecticut",
        "city": "Bridgeport",
        "wfo": "OKX",
        "gridX": 58,
        "gridY": 60
      },
      "geometry": {
        "type": "Point",
        "coordinates": [
          -73.1894,
          41.1792
        ]
      }
    },
    {
      "type": "Feature",
      "id": "CT_3",
      "properties": {
        "st": "CT",
        "state": "Connecticut",
        "city": "New Haven",
        "wfo": "OKX",
        "gridX": 66,
        "gridY": 68
      },
      "geometry": {
        "type": "Point",
        "coordinates": [
          -72.9279,
          41.3083
        ]
      }
    },
    {
      "type": "Feature",
      "id": "DC_1",
      "properties": {
        "st": "DC",
        "state": "District of Columbia",
        "city": "Washington",
        "wfo": "LWX",
        "gridX": 96,
        "gridY": 72
      },
      "geometry": {
        "type": "Point",
        "coordinates": [
          -77.0369,
          38.9072
        ]
      }
    },
    {
      "type": "Feature",
      "id": "DE_1",
      "properties": {
        "st": "DE",
        "state": "Delaware",
        "city": "Wilmington",
        "wfo": "PHI",
        "gridX": 38,
        "gridY": 64
      },
      "geometry": {
        "type": "Point",
        "coordinates": [
          -75.5398,
          39.7391
        ]
      }
    },
    {
      "type": "Feature",
      "id": "DE_2",
      "properties": {
        "st": "DE",
        "state": "Delaware",
        "city": "Dover",
        "wfo": "PHI",
        "gridX": 42,
        "gridY": 38
      },
      "geometry": {
        "type": "Point",
        "coordinates": [
          -75.5244,
          39.1582
        ]
      }
    },
    {
      "type": "Feature",
      "id": "FL_1",
      "properties": {
        "st": "FL",
        "state": "Florida",
        "city": "Miami",
        "wfo": "MFL",
        "gridX": 110,
        "gridY": 50
      },
      "geometry": {
        "type": "Point",
        "coordinates": [
          -80.1918,
          25.7617
        ]
      }
    },
    {
      "type": "Feature",
      "id": "FL_2",
      "properties": {
        "st": "FL",
        "state": "Florida",
        "city": "Tampa",
        "wfo": "TBW",
        "gridX": 71,
        "gridY": 98
      },
      "geometry": {
        "type": "Point",
        "coordinates": [
          -82.4572,
          27.9506
        ]
      }
    },
    {
      "type": "Feature",
      "id": "FL_3",
      "properties": {
        "st": "FL",
        "state": "Florida",
        "city": "Orlando",
        "wfo": "MLB",
        "gridX": 26,
        "gridY": 68
      },
      "geometry": {
        "type": "Point",
        "coordinates": [
          -81.3792,
          28.5383
        ]
      }
    },
    {
      "type": "Feature",
      "id": "FL_4",
      "properties": {
        "st": "FL",
        "state": "Florida",
        "city": "Jacksonville",
        "wfo": "JAX",
        "gridX": 66,
        "gridY": 65
      },
      "geometry": {
        "type": "Point",
        "coordinates": [
          -81.6557,
          30.3322
        ]
      }
    },
    {
      "type": "Feature",
      "id": "GA_1",
      "properties": {
        "st": "GA",
        "state": "Georgia",
        "city": "Atlanta",
        "wfo": "FFC",
        "gridX": 51,
        "gridY": 87
      },
      "geometry": {
        "type": "Point",
        "coordinates": [
          -84.388,
          33.749
        ]
      }
    },
    {
      "type": "Feature",
      "id": "GA_2",
      "properties": {
        "st": "GA",
        "state": "Georgia",
        "city": "Savannah",
        "wfo": "CHS",
        "gridX": 47,
        "gridY": 41
      },
      "geometry": {
        "type": "Point",
        "coordinates": [
          -81.0912,
          32.0809
        ]
      }
    },
    {
      "type": "Feature",
      "id": "GA_3",
      "properties": {
        "st": "GA",
        "state": "Georgia",
        "city": "Augusta",
        "wfo": "CAE",
        "gridX": 31,
        "gridY": 34
      },
      "geometry": {
        "type": "Point",
        "coordinates": [
          -82.0105,
          33.4735
        ]
      }
    },
    {
      "type": "Feature",
      "id": "GA_4",
      "properties": {
        "st": "GA",
        "state": "Georgia",
        "city": "Columbus",
        "wfo": "FFC",
        "gridX": 33,
        "gridY": 28
      },
      "geometry": {
        "type": "Point",
        "coordinates": [
          -84.9877,
          32.4609
        ]
      }
    },
    {
      "type": "Feature",
      "id": "IA_1",
      "properties": {
        "st": "IA",
        "state": "Iowa",
        "city": "Des Moines",
        "wfo": "DMX",
        "gridX": 73,
        "gridY": 49
      },
      "geometry": {
        "type": "Point",
        "coordinates": [
          -93.625,
          41.5868
        ]
      }
    },
    {
      "type": "Feature",
      "id": "IA_2",
      "properties": {
        "st": "IA",
        "state": "Iowa",
        "city": "Davenport",
        "wfo": "DVN",
        "gridX": 68,
        "gridY": 66
      },
      "geometry": {
        "type": "Point",
        "coordinates": [
          -90.5776,
          41.5236
        ]
      }
    },
    {
      "type": "Feature",
      "id": "IA_3",
      "properties": {
        "st": "IA",
        "state": "Iowa",
        "city": "Cedar Rapids",
        "wfo": "DVN",
        "gridX": 30,
        "gridY": 86
      },
      "geometry": {
        "type": "Point",
        "coordinates": [
          -91.6656,
          41.9779
        ]
      }
    },
    {
      "type": "Feature",
      "id": "IA_4",
      "properties": {
        "st": "IA",
        "state": "Iowa",
        "city": "Sioux City",
        "wfo": "FSD",
        "gridX": 108,
        "gridY": 16
      },
      "geometry": {
        "type": "Point",
        "coordinates": [
          -96.4003,
          42.499
        ]
      }
    },
    {
      "type": "Feature",
      "id": "ID_1",
      "properties": {
        "st": "ID",
        "state": "Idaho",
        "city": "Boise",
        "wfo": "BOI",
        "gridX": 133,
        "gridY": 86
      },
      "geometry": {
        "type": "Point",
        "coordinates": [
          -116.2023,
          43.615
        ]
      }
    },
    {
      "type": "Feature",
      "id": "ID_2",
      "properties": {
        "st": "ID",
        "state": "Idaho",
        "city": "Coeur d'Alene",
        "wfo": "OTX",
        "gridX": 161,
        "gridY": 87
      },
      "geometry": {
        "type": "Point",
        "coordinates": [
          -116.7805,
          47.6777
        ]
      }
    },
    {
      "type": "Feature",
      "id": "ID_3",
      "properties": {
        "st": "ID",
        "state": "Idaho",
        "city": "Idaho Falls",
        "wfo": "PIH",
        "gridX": 124,
        "gridY": 74
      },
      "geometry": {
        "type": "Point",
        "coordinates": [
          -112.0333,
          43.4917
        ]
      }
    },
    {
      "type": "Feature",
      "id": "ID_4",
      "properties": {
        "st": "ID",
        "state": "Idaho",
        "city": "Pocatello",
        "wfo": "PIH",
        "gridX": 107,
        "gridY": 48
      },
      "geometry": {
        "type": "Point",
        "coordinates": [
          -112.4455,
          42.8713
        ]
      }
    },
    {
      "type": "Feature",
      "id": "IL_1",
      "properties": {
        "st": "IL",
        "state": "Illinois",
        "city": "Chicago",
        "wfo": "LOT",
        "gridX": 76,
        "gridY": 73
      },
      "geometry": {
        "type": "Point",
        "coordinates": [
          -87.6298,
          41.8781
        ]
      }
    },
    {
      "type": "Feature",
      "id": "IL_2",
      "properties": {
        "st": "IL",
        "state": "Illinois",
        "city": "Peoria",
        "wfo": "ILX",
        "gridX": 48,
        "gridY": 97
      },
      "geometry": {
        "type": "Point",
        "coordinates": [
          -89.589,
          40.6936
        ]
      }
    },
    {
      "type": "Feature",
      "id": "IL_3",
      "properties": {
        "st": "IL",
        "state": "Illinois",
        "city": "Rockford",
        "wfo": "LOT",
        "gridX": 25,
        "gridY": 89
      },
      "geometry": {
        "type": "Point",
        "coordinates": [
          -89.0937,
          42.2711
        ]
      }
    },
    {
      "type": "Feature",
      "id": "IL_4",
      "properties": {
        "st": "IL",
        "state": "Illinois",
        "city": "Springfield",
        "wfo": "ILX",
        "gridX": 47,
        "gridY": 55
      },
      "geometry": {
        "type": "Point",
        "coordinates": [
          -89.6501,
          39.7817
        ]
      }
    },
    {
      "type": "Feature",
      "id": "IN_1",
      "properties": {
        "st": "IN",
        "state": "Indiana",
        "city": "Indianapolis",
        "wfo": "IND",
        "gridX": 58,
        "gridY": 69
      },
      "geometry": {
        "type": "Point",
        "coordinates": [
          -86.1581,
          39.7684
        ]
      }
    },
    {
      "type": "Feature",
      "id": "IN_2",
      "properties": {
        "st": "IN",
        "state": "Indiana",
        "city": "Fort Wayne",
        "wfo": "IWX",
        "gridX": 69,
        "gridY": 38
      },
      "geometry": {
        "type": "Point",
        "coordinates": [
          -85.1394,
          41.0793
        ]
      }
    },
    {
      "type": "Feature",
      "id": "IN_3",
      "properties": {
        "st": "IN",
        "state": "Indiana",
        "city": "South Bend",
        "wfo": "IWX",
        "gridX": 29,
        "gridY": 63
      },
      "geometry": {
        "type": "Point",
        "coordinates": [
          -86.252,
          41.6764
        ]
      }
    },
    {
      "type": "Feature",
      "id": "IN_4",
      "properties": {
        "st": "IN",
        "state": "Indiana",
        "city": "Evansville",
        "wfo": "PAH",
        "gridX": 166,
        "gridY": 97
      },
      "geometry": {
        "type": "Point",
        "coordinates": [
          -87.5711,
          37.9716
        ]
      }
    },
    {
      "type": "Feature",
      "id": "KS_1",
      "properties": {
        "st": "KS",
        "state": "Kansas",
        "city": "Wichita",
        "wfo": "ICT",
        "gridX": 62,
        "gridY": 34
      },
      "geometry": {
        "type": "Point",
        "coordinates": [
          -97.3301,
          37.6872
        ]
      }
    },
    {
      "type": "Feature",
      "id": "KS_2",
      "properties": {
        "st": "KS",
        "state": "Kansas",
        "city": "Kansas City",
        "wfo": "EAX",
        "gridX": 42,
        "gridY": 51
      },
      "geometry": {
        "type": "Point",
        "coordinates": [
          -94.6275,
          39.1142
        ]
      }
    },
    {
      "type": "Feature",
      "id": "KS_3",
      "properties": {
        "st": "KS",
        "state": "Kansas",
        "city": "Topeka",
        "wfo": "TOP",
        "gridX": 81,
        "gridY": 48
      },
      "geometry": {
        "type": "Point",
        "coordinates": [
          -95.6752,
          39.0473
        ]
      }
    },
    {
      "type": "Feature",
      "id": "KS_4",
      "properties": {
        "st": "KS",
        "state": "Kansas",
        "city": "Manhattan",
        "wfo": "TOP",
        "gridX": 50,
        "gridY": 55
      },
      "geometry": {
        "type": "Point",
        "coordinates": [
          -96.5717,
          39.1836
        ]
      }
    },
    {
      "type": "Feature",
      "id": "KY_1",
      "properties": {
        "st": "KY",
        "state": "Kentucky",
        "city": "Louisville",
        "wfo": "LMK",
        "gridX": 50,
        "gridY": 78
      },
      "geometry": {
        "type": "Point",
        "coordinates": [
          -85.7585,
          38.2527
        ]
      }
    },
    {
      "type": "Feature",
      "id": "KY_2",
      "properties": {
        "st": "KY",
        "state": "Kentucky",
        "city": "Lexington",
        "wfo": "LMK",
        "gridX": 95,
        "gridY": 71
      },
      "geometry": {
        "type": "Point",
        "coordinates": [
          -84.5037,
          38.0406
        ]
      }
    },
    {
      "type": "Feature",
      "id": "KY_3",
      "properties": {
        "st": "KY",
        "state": "Kentucky",
        "city": "Bowling Green",
        "wfo": "LMK",
        "gridX": 28,
        "gridY": 18
      },
      "geometry": {
        "type": "Point",
        "coordinates": [
          -86.4808,
          36.9685
        ]
      }
    },
    {
      "type": "Feature",
      "id": "LA_1",
      "properties": {
        "st": "LA",
        "state": "Louisiana",
        "city": "New Orleans",
        "wfo": "LIX",
        "gridX": 68,
        "gridY": 88
      },
      "geometry": {
        "type": "Point",
        "coordinates": [
          -90.0715,
          29.9511
        ]
      }
    },
    {
      "type": "Feature",
      "id": "LA_2",
      "properties": {
        "st": "LA",
        "state": "Louisiana",
        "city": "Baton Rouge",
        "wfo": "LIX",
        "gridX": 25,
        "gridY": 109
      },
      "geometry": {
        "type": "Point",
        "coordinates": [
          -91.1871,
          30.4515
        ]
      }
    },
    {
      "type": "Feature",
      "id": "LA_3",
      "properties": {
        "st": "LA",
        "state": "Louisiana",
        "city": "Lafayette",
        "wfo": "LCH",
        "gridX": 105,
        "gridY": 95
      },
      "geometry": {
        "type": "Point",
        "coordinates": [
          -92.0198,
          30.2241
        ]
      }
    },
    {
      "type": "Feature",
      "id": "LA_4",
      "properties": {
        "st": "LA",
        "state": "Louisiana",
        "city": "Shreveport",
        "wfo": "SHV",
        "gridX": 74,
        "gridY": 69
      },
      "geometry": {
        "type": "Point",
        "coordinates": [
          -93.7502,
          32.5252
        ]
      }
    },
    {
      "type": "Feature",
      "id": "MA_1",
      "properties": {
        "st": "MA",
        "state": "Massachusetts",
        "city": "Boston",
        "wfo": "BOX",
        "gridX": 71,
        "gridY": 90
      },
      "geometry": {
        "type": "Point",
        "coordinates": [
          -71.0589,
          42.3601
        ]
      }
    },
    {
      "type": "Feature",
      "id": "MA_2",
      "properties": {
        "st": "MA",
        "state": "Massachusetts",
        "city": "Worcester",
        "wfo": "BOX",
        "gridX": 47,
        "gridY": 81
      },
      "geometry": {
        "type": "Point",
        "coordinates": [
          -71.8023,
          42.2626
        ]
      }
    },
    {
      "type": "Feature",
      "id": "MA_3",
      "properties": {
        "st": "MA",
        "state": "Massachusetts",
        "city": "Springfield",
        "wfo": "BOX",
        "gridX": 22,
        "gridY": 69
      },
      "geometry": {
        "type": "Point",
        "coordinates": [
          -72.5898,
          42.1015
        ]
      }
    },
    {
      "type": "Feature",
      "id": "MD_1",
      "properties": {
        "st": "MD",
        "state": "Maryland",
        "city": "Baltimore",
        "wfo": "LWX",
        "gridX": 109,
        "gridY": 91
      },
      "geometry": {
        "type": "Point",
        "coordinates": [
          -76.6122,
          39.2904
        ]
      }
    },
    {
      "type": "Feature",
      "id": "MD_2",
      "properties": {
        "st": "MD",
        "state": "Maryland",
        "city": "Hagerstown",
        "wfo": "LWX",
        "gridX": 68,
        "gridY": 102
      },
      "geometry": {
        "type": "Point",
        "coordinates": [
          -77.7199,
          39.6418
        ]
      }
    },
    {
      "type": "Feature",
      "id": "MD_3",
      "properties": {
        "st": "MD",
        "state": "Maryland",
        "city": "Salisbury",
        "wfo": "AKQ",
        "gridX": 105,
        "gridY": 122
      },
      "geometry": {
        "type": "Point",
        "coordinates": [
          -75.5994,
          38.3607
        ]
      }
    },
    {
      "type": "Feature",
      "id": "ME_1",
      "properties": {
        "st": "ME",
        "state": "Maine",
        "city": "Portland",
        "wfo": "GYX",
        "gridX": 72,
        "gridY": 58
      },
      "geometry": {
        "type": "Point",
        "coordinates": [
          -70.2568,
          43.6591
        ]
      }
    },
    {
      "type": "Feature",
      "id": "ME_2",
      "properties": {
        "st": "ME",
        "state": "Maine",
        "city": "Bangor",
        "wfo": "CAR",
        "gridX": 66,
        "gridY": 62
      },
      "geometry": {
        "type": "Point",
        "coordinates": [
          -68.7778,
          44.8012
        ]
      }
    },
    {
      "type": "Feature",
      "id": "ME_3",
      "properties": {
        "st": "ME",
        "state": "Maine",
        "city": "Augusta",
        "wfo": "GYX",
        "gridX": 82,
        "gridY": 91
      },
      "geometry": {
        "type": "Point",
        "coordinates": [
          -69.7795,
          44.3106
        ]
      }
    },
    {
      "type": "Feature",
      "id": "MI_1",
      "properties": {
        "st": "MI",
        "state": "Michigan",
        "city": "Detroit",
        "wfo": "DTX",
        "gridX": 66,
        "gridY": 34
      },
      "geometry": {
        "type": "Point",
        "coordinates": [
          -83.0458,
          42.3314
        ]
      }
    },
    {
      "type": "Feature",
      "id": "MI_2",
      "properties": {
        "st": "MI",
        "state": "Michigan",
        "city": "Grand Rapids",
        "wfo": "GRR",
        "gridX": 41,
        "gridY": 47
      },
      "geometry": {
        "type": "Point",
        "coordinates": [
          -85.6681,
          42.9634
        ]
      }
    },
    {
      "type": "Feature",
      "id": "MI_3",
      "properties": {
        "st": "MI",
        "state": "Michigan",
        "city": "Lansing",
        "wfo": "GRR",
        "gridX": 79,
        "gridY": 39
      },
      "geometry": {
        "type": "Point",
        "coordinates": [
          -84.5555,
          42.7325
        ]
      }
    },
    {
      "type": "Feature",
      "id": "MI_4",
      "properties": {
        "st": "MI",
        "state": "Michigan",
        "city": "Traverse City",
        "wfo": "APX",
        "gridX": 29,
        "gridY": 46
      },
      "geometry": {
        "type": "Point",
        "coordinates": [
          -85.6206,
          44.7631
        ]
      }
    },
    {
      "type": "Feature",
      "id": "MN_1",
      "properties": {
        "st": "MN",
        "state": "Minnesota",
        "city": "Minneapolis",
        "wfo": "MPX",
        "gridX": 108,
        "gridY": 72
      },
      "geometry": {
        "type": "Point",
        "coordinates": [
          -93.265,
          44.9778
        ]
      }
    },
    {
      "type": "Feature",
      "id": "MN_2",
      "properties": {
        "st": "MN",
        "state": "Minnesota",
        "city": "Duluth",
        "wfo": "DLH",
        "gridX": 91,
        "gridY": 69
      },
      "geometry": {
        "type": "Point",
        "coordinates": [
          -92.1005,
          46.7867
        ]
      }
    },
    {
      "type": "Feature",
      "id": "MN_3",
      "properties": {
        "st": "MN",
        "state": "Minnesota",
        "city": "Rochester",
        "wfo": "ARX",
        "gridX": 22,
        "gridY": 70
      },
      "geometry": {
        "type": "Point",
        "coordinates": [
          -92.4802,
          44.0121
        ]
      }
    },
    {
      "type": "Feature",
      "id": "MN_4",
      "properties": {
        "st": "MN",
        "state": "Minnesota",
        "city": "St. Cloud",
        "wfo": "MPX",
        "gridX": 79,
        "gridY": 99
      },
      "geometry": {
        "type": "Point",
        "coordinates": [
          -94.1632,
          45.5579
        ]
      }
    },
    {
      "type": "Feature",
      "id": "MO_1",
      "properties": {
        "st": "MO",
        "state": "Missouri",
        "city": "St. Louis",
        "wfo": "LSX",
        "gridX": 95,
        "gridY": 74
      },
      "geometry": {
        "type": "Point",
        "coordinates": [
          -90.1994,
          38.627
        ]
      }
    },
    {
      "type": "Feature",
      "id": "MO_2",
      "properties": {
        "st": "MO",
        "state": "Missouri",
        "city": "Kansas City",
        "wfo": "EAX",
        "gridX": 44,
        "gridY": 51
      },
      "geometry": {
        "type": "Point",
        "coordinates": [
          -94.5786,
          39.0997
        ]
      }
    },
    {
      "type": "Feature",
      "id": "MO_3",
      "properties": {
        "st": "MO",
        "state": "Missouri",
        "city": "Springfield",
        "wfo": "SGF",
        "gridX": 67,
        "gridY": 35
      },
      "geometry": {
        "type": "Point",
        "coordinates": [
          -93.2923,
          37.2089
        ]
      }
    },
    {
      "type": "Feature",
      "id": "MO_4",
      "properties": {
        "st": "MO",
        "state": "Missouri",
        "city": "Columbia",
        "wfo": "LSX",
        "gridX": 20,
        "gridY": 87
      },
      "geometry": {
        "type": "Point",
        "coordinates": [
          -92.3341,
          38.9517
        ]
      }
    },
    {
      "type": "Feature",
      "id": "MS_1",
      "properties": {
        "st": "MS",
        "state": "Mississippi",
        "city": "Jackson",
        "wfo": "JAN",
        "gridX": 76,
        "gridY": 63
      },
      "geometry": {
        "type": "Point",
        "coordinates": [
          -90.1848,
          32.2988
        ]
      }
    },
    {
      "type": "Feature",
      "id": "MS_2",
      "properties": {
        "st": "MS",
        "state": "Mississippi",
        "city": "Gulfport",
        "wfo": "LIX",
        "gridX": 104,
        "gridY": 108
      },
      "geometry": {
        "type": "Point",
        "coordinates": [
          -89.0928,
          30.3674
        ]
      }
    },
    {
      "type": "Feature",
      "id": "MS_3",
      "properties": {
        "st": "MS",
        "state": "Mississippi",
        "city": "Hattiesburg",
        "wfo": "JAN",
        "gridX": 111,
        "gridY": 21
      },
      "geometry": {
        "type": "Point",
        "coordinates": [
          -89.2903,
          31.3271
        ]
      }
    },
    {
      "type": "Feature",
      "id": "MS_4",
      "properties": {
        "st": "MS",
        "state": "Mississippi",
        "city": "Tupelo",
        "wfo": "MEG",
        "gridX": 93,
        "gridY": 29
      },
      "geometry": {
        "type": "Point",
        "coordinates": [
          -88.7034,
          34.2576
        ]
      }
    },
    {
      "type": "Feature",
      "id": "MT_1",
      "properties": {
        "st": "MT",
        "state": "Montana",
        "city": "Billings",
        "wfo": "BYZ",
        "gridX": 103,
        "gridY": 92
      },
      "geometry": {
        "type": "Point",
        "coordinates": [
          -108.5007,
          45.7833
        ]
      }
    },
    {
      "type": "Feature",
      "id": "MT_2",
      "properties": {
        "st": "MT",
        "state": "Montana",
        "city": "Bozeman",
        "wfo": "TFX",
        "gridX": 96,
        "gridY": 58
      },
      "geometry": {
        "type": "Point",
        "coordinates": [
          -111.0429,
          45.677
        ]
      }
    },
    {
      "type": "Feature",
      "id": "MT_3",
      "properties": {
        "st": "MT",
        "state": "Montana",
        "city": "Missoula",
        "wfo": "MSO",
        "gridX": 105,
        "gridY": 131
      },
      "geometry": {
        "type": "Point",
        "coordinates": [
          -113.994,
          46.8721
        ]
      }
    },
    {
      "type": "Feature",
      "id": "MT_4",
      "properties": {
        "st": "MT",
        "state": "Montana",
        "city": "Great Falls",
        "wfo": "TFX",
        "gridX": 98,
        "gridY": 145
      },
      "geometry": {
        "type": "Point",
        "coordinates": [
          -111.3008,
          47.5053
        ]
      }
    },
    {
      "type": "Feature",
      "id": "NC_1",
      "properties": {
        "st": "NC",
        "state": "North Carolina",
        "city": "Charlotte",
        "wfo": "GSP",
        "gridX": 119,
        "gridY": 65
      },
      "geometry": {
        "type": "Point",
        "coordinates": [
          -80.8431,
          35.2271
        ]
      }
    },
    {
      "type": "Feature",
      "id": "NC_2",
      "properties": {
        "st": "NC",
        "state": "North Carolina",
        "city": "Raleigh",
        "wfo": "RAH",
        "gridX": 75,
        "gridY": 57
      },
      "geometry": {
        "type": "Point",
        "coordinates": [
          -78.6382,
          35.7796
        ]
      }
    },
    {
      "type": "Feature",
      "id": "NC_3",
      "properties": {
        "st": "NC",
        "state": "North Carolina",
        "city": "Greensboro",
        "wfo": "RAH",
        "gridX": 32,
        "gridY": 66
      },
      "geometry": {
        "type": "Point",
        "coordinates": [
          -79.792,
          36.0726
        ]
      }
    },
    {
      "type": "Feature",
      "id": "NC_4",
      "properties": {
        "st": "NC",
        "state": "North Carolina",
        "city": "Asheville",
        "wfo": "GSP",
        "gridX": 56,
        "gridY": 75
      },
      "geometry": {
        "type": "Point",
        "coordinates": [
          -82.5515,
          35.5951
        ]
      }
    },
    {
      "type": "Feature",
      "id": "ND_1",
      "properties": {
        "st": "ND",
        "state": "North Dakota",
        "city": "Fargo",
        "wfo": "FGF",
        "gridX": 100,
        "gridY": 57
      },
      "geometry": {
        "type": "Point",
        "coordinates": [
          -96.7898,
          46.8772
        ]
      }
    },
    {
      "type": "Feature",
      "id": "ND_2",
      "properties": {
        "st": "ND",
        "state": "North Dakota",
        "city": "Bismarck",
        "wfo": "BIS",
        "gridX": 110,
        "gridY": 47
      },
      "geometry": {
        "type": "Point",
        "coordinates": [
          -100.7837,
          46.8083
        ]
      }
    },
    {
      "type": "Feature",
      "id": "ND_3",
      "properties": {
        "st": "ND",
        "state": "North Dakota",
        "city": "Grand Forks",
        "wfo": "FGF",
        "gridX": 93,
        "gridY": 107
      },
      "geometry": {
        "type": "Point",
        "coordinates": [
          -97.0329,
          47.9253
        ]
      }
    },
    {
      "type": "Feature",
      "id": "NE_1",
      "properties": {
        "st": "NE",
        "state": "Nebraska",
        "city": "Omaha",
        "wfo": "OAX",
        "gridX": 83,
        "gridY": 60
      },
      "geometry": {
        "type": "Point",
        "coordinates": [
          -95.9345,
          41.2565
        ]
      }
    },
    {
      "type": "Feature",
      "id": "NE_2",
      "properties": {
        "st": "NE",
        "state": "Nebraska",
        "city": "Lincoln",
        "wfo": "OAX",
        "gridX": 56,
        "gridY": 40
      },
      "geometry": {
        "type": "Point",
        "coordinates": [
          -96.7026,
          40.8136
        ]
      }
    },
    {
      "type": "Feature",
      "id": "NE_3",
      "properties": {
        "st": "NE",
        "state": "Nebraska",
        "city": "Grand Island",
        "wfo": "GID",
        "gridX": 68,
        "gridY": 84
      },
      "geometry": {
        "type": "Point",
        "coordinates": [
          -98.342,
          40.9264
        ]
      }
    },
    {
      "type": "Feature",
      "id": "NH_1",
      "properties": {
        "st": "NH",
        "state": "New Hampshire",
        "city": "Manchester",
        "wfo": "GYX",
        "gridX": 38,
        "gridY": 20
      },
      "geometry": {
        "type": "Point",
        "coordinates": [
          -71.4548,
          42.9956
        ]
      }
    },
    {
      "type": "Feature",
      "id": "NH_2",
      "properties": {
        "st": "NH",
        "state": "New Hampshire",
        "city": "Concord",
        "wfo": "GYX",
        "gridX": 34,
        "gridY": 30
      },
      "geometry": {
        "type": "Point",
        "coordinates": [
          -71.5376,
          43.2081
        ]
      }
    },
    {
      "type": "Feature",
      "id": "NH_3",
      "properties": {
        "st": "NH",
        "state": "New Hampshire",
        "city": "Portsmouth",
        "wfo": "GYX",
        "gridX": 60,
        "gridY": 28
      },
      "geometry": {
        "type": "Point",
        "coordinates": [
          -70.7626,
          43.0718
        ]
      }
    },
    {
      "type": "Feature",
      "id": "NJ_1",
      "properties": {
        "st": "NJ",
        "state": "New Jersey",
        "city": "Newark",
        "wfo": "OKX",
        "gridX": 27,
        "gridY": 35
      },
      "geometry": {
        "type": "Point",
        "coordinates": [
          -74.1724,
          40.7357
        ]
      }
    },
    {
      "type": "Feature",
      "id": "NJ_2",
      "properties": {
        "st": "NJ",
        "state": "New Jersey",
        "city": "Camden",
        "wfo": "PHI",
        "gridX": 51,
        "gridY": 75
      },
      "geometry": {
        "type": "Point",
        "coordinates": [
          -75.1196,
          39.9259
        ]
      }
    },
    {
      "type": "Feature",
      "id": "NJ_3",
      "properties": {
        "st": "NJ",
        "state": "New Jersey",
        "city": "Trenton",
        "wfo": "PHI",
        "gridX": 62,
        "gridY": 90
      },
      "geometry": {
        "type": "Point",
        "coordinates": [
          -74.7429,
          40.2171
        ]
      }
    },
    {
      "type": "Feature",
      "id": "NJ_4",
      "properties": {
        "st": "NJ",
        "state": "New Jersey",
        "city": "Atlantic City",
        "wfo": "PHI",
        "gridX": 79,
        "gridY": 53
      },
      "geometry": {
        "type": "Point",
        "coordinates": [
          -74.4229,
          39.3643
        ]
      }
    },
    {
      "type": "Feature",
      "id": "NM_1",
      "properties": {
        "st": "NM",
        "state": "New Mexico",
        "city": "Albuquerque",
        "wfo": "ABQ",
        "gridX": 98,
        "gridY": 121
      },
      "geometry": {
        "type": "Point",
        "coordinates": [
          -106.6504,
          35.0844
        ]
      }
    },
    {
      "type": "Feature",
      "id": "NM_2",
      "properties": {
        "st": "NM",
        "state": "New Mexico",
        "city": "Las Cruces",
        "wfo": "EPZ",
        "gridX": 92,
        "gridY": 81
      },
      "geometry": {
        "type": "Point",
        "coordinates": [
          -106.7637,
          32.3199
        ]
      }
    },
    {
      "type": "Feature",
      "id": "NM_3",
      "properties": {
        "st": "NM",
        "state": "New Mexico",
        "city": "Santa Fe",
        "wfo": "ABQ",
        "gridX": 126,
        "gridY": 146
      },
      "geometry": {
        "type": "Point",
        "coordinates": [
          -105.9378,
          35.687
        ]
      }
    },
    {
      "type": "Feature",
      "id": "NV_1",
      "properties": {
        "st": "NV",
        "state": "Nevada",
        "city": "Las Vegas",
        "wfo": "VEF",
        "gridX": 123,
        "gridY": 98
      },
      "geometry": {
        "type": "Point",
        "coordinates": [
          -115.1398,
          36.1699
        ]
      }
    },
    {
      "type": "Feature",
      "id": "NV_2",
      "properties": {
        "st": "NV",
        "state": "Nevada",
        "city": "Reno",
        "wfo": "REV",
        "gridX": 45,
        "gridY": 106
      },
      "geometry": {
        "type": "Point",
        "coordinates": [
          -119.8138,
          39.5296
        ]
      }
    },
    {
      "type": "Feature",
      "id": "NV_3",
      "properties": {
        "st": "NV",
        "state": "Nevada",
        "city": "Elko",
        "wfo": "LKN",
        "gridX": 122,
        "gridY": 131
      },
      "geometry": {
        "type": "Point",
        "coordinates": [
          -115.7631,
          40.8324
        ]
      }
    },
    {
      "type": "Feature",
      "id": "NY_1",
      "properties": {
        "st": "NY",
        "state": "New York",
        "city": "New York",
        "wfo": "OKX",
        "gridX": 33,
        "gridY": 35
      },
      "geometry": {
        "type": "Point",
        "coordinates": [
          -74.006,
          40.7128
        ]
      }
    },
    {
      "type": "Feature",
      "id": "NY_2",
      "properties": {
        "st": "NY",
        "state": "New York",
        "city": "Buffalo",
        "wfo": "BUF",
        "gridX": 36,
        "gridY": 47
      },
      "geometry": {
        "type": "Point",
        "coordinates": [
          -78.8784,
          42.8864
        ]
      }
    },
    {
      "type": "Feature",
      "id": "NY_3",
      "properties": {
        "st": "NY",
        "state": "New York",
        "city": "Rochester",
        "wfo": "BUF",
        "gridX": 77,
        "gridY": 65
      },
      "geometry": {
        "type": "Point",
        "coordinates": [
          -77.6088,
          43.1566
        ]
      }
    },
    {
      "type": "Feature",
      "id": "NY_4",
      "properties": {
        "st": "NY",
        "state": "New York",
        "city": "Albany",
        "wfo": "ALY",
        "gridX": 72,
        "gridY": 63
      },
      "geometry": {
        "type": "Point",
        "coordinates": [
          -73.7562,
          42.6526
        ]
      }
    },
    {
      "type": "Feature",
      "id": "OH_1",
      "properties": {
        "st": "OH",
        "state": "Ohio",
        "city": "Columbus",
        "wfo": "ILN",
        "gridX": 85,
        "gridY": 81
      },
      "geometry": {
        "type": "Point",
        "coordinates": [
          -82.9988,
          39.9612
        ]
      }
    },
    {
      "type": "Feature",
      "id": "OH_2",
      "properties": {
        "st": "OH",
        "state": "Ohio",
        "city": "Cleveland",
        "wfo": "CLE",
        "gridX": 83,
        "gridY": 65
      },
      "geometry": {
        "type": "Point",
        "coordinates": [
          -81.6944,
          41.4993
        ]
      }
    },
    {
      "type": "Feature",
      "id": "OH_3",
      "properties": {
        "st": "OH",
        "state": "Ohio",
        "city": "Cincinnati",
        "wfo": "ILN",
        "gridX": 36,
        "gridY": 38
      },
      "geometry": {
        "type": "Point",
        "coordinates": [
          -84.512,
          39.1031
        ]
      }
    },
    {
      "type": "Feature",
      "id": "OH_4",
      "properties": {
        "st": "OH",
        "state": "Ohio",
        "city": "Toledo",
        "wfo": "CLE",
        "gridX": 20,
        "gridY": 66
      },
      "geometry": {
        "type": "Point",
        "coordinates": [
          -83.5379,
          41.6528
        ]
      }
    },
    {
      "type": "Feature",
      "id": "OK_1",
      "properties": {
        "st": "OK",
        "state": "Oklahoma",
        "city": "Oklahoma City",
        "wfo": "OUN",
        "gridX": 97,
        "gridY": 94
      },
      "geometry": {
        "type": "Point",
        "coordinates": [
          -97.5164,
          35.4676
        ]
      }
    },
    {
      "type": "Feature",
      "id": "OK_2",
      "properties": {
        "st": "OK",
        "state": "Oklahoma",
        "city": "Tulsa",
        "wfo": "TSA",
        "gridX": 41,
        "gridY": 105
      },
      "geometry": {
        "type": "Point",
        "coordinates": [
          -95.9928,
          36.154
        ]
      }
    },
    {
      "type": "Feature",
      "id": "OK_3",
      "properties": {
        "st": "OK",
        "state": "Oklahoma",
        "city": "Lawton",
        "wfo": "OUN",
        "gridX": 64,
        "gridY": 56
      },
      "geometry": {
        "type": "Point",
        "coordinates": [
          -98.3959,
          34.6036
        ]
      }
    },
    {
      "type": "Feature",
      "id": "OR_1",
      "properties": {
        "st": "OR",
        "state": "Oregon",
        "city": "Portland",
        "wfo": "PQR",
        "gridX": 113,
        "gridY": 104
      },
      "geometry": {
        "type": "Point",
        "coordinates": [
          -122.6784,
          45.5152
        ]
      }
    },
    {
      "type": "Feature",
      "id": "OR_2",
      "properties": {
        "st": "OR",
        "state": "Oregon",
        "city": "Eugene",
        "wfo": "PQR",
        "gridX": 85,
        "gridY": 39
      },
      "geometry": {
        "type": "Point",
        "coordinates": [
          -123.0868,
          44.0521
        ]
      }
    },
    {
      "type": "Feature",
      "id": "OR_3",
      "properties": {
        "st": "OR",
        "state": "Oregon",
        "city": "Medford",
        "wfo": "MFR",
        "gridX": 105,
        "gridY": 73
      },
      "geometry": {
        "type": "Point",
        "coordinates": [
          -122.8756,
          42.3265
        ]
      }
    },
    {
      "type": "Feature",
      "id": "OR_4",
      "properties": {
        "st": "OR",
        "state": "Oregon",
        "city": "Bend",
        "wfo": "PDT",
        "gridX": 35,
        "gridY": 41
      },
      "geometry": {
        "type": "Point",
        "coordinates": [
          -121.3153,
          44.0582
        ]
      }
    },
    {
      "type": "Feature",
      "id": "PA_1",
      "properties": {
        "st": "PA",
        "state": "Pennsylvania",
        "city": "Philadelphia",
        "wfo": "PHI",
        "gridX": 50,
        "gridY": 76
      },
      "geometry": {
        "type": "Point",
        "coordinates": [
          -75.1652,
          39.9526
        ]
      }
    },
    {
      "type": "Feature",
      "id": "PA_2",
      "properties": {
        "st": "PA",
        "state": "Pennsylvania",
        "city": "Pittsburgh",
        "wfo": "PBZ",
        "gridX": 78,
        "gridY": 66
      },
      "geometry": {
        "type": "Point",
        "coordinates": [
          -79.9959,
          40.4406
        ]
      }
    },
    {
      "type": "Feature",
      "id": "PA_3",
      "properties": {
        "st": "PA",
        "state": "Pennsylvania",
        "city": "Harrisburg",
        "wfo": "CTP",
        "gridX": 105,
        "gridY": 38
      },
      "geometry": {
        "type": "Point",
        "coordinates": [
          -76.8867,
          40.2732
        ]
      }
    },
    {
      "type": "Feature",
      "id": "PA_4",
      "properties": {
        "st": "PA",
        "state": "Pennsylvania",
        "city": "Scranton",
        "wfo": "BGM",
        "gridX": 79,
        "gridY": 27
      },
      "geometry": {
        "type": "Point",
        "coordinates": [
          -75.6624,
          41.4089
        ]
      }
    },
    {
      "type": "Feature",
      "id": "RI_1",
      "properties": {
        "st": "RI",
        "state": "Rhode Island",
        "city": "Providence",
        "wfo": "BOX",
        "gridX": 64,
        "gridY": 64
      },
      "geometry": {
        "type": "Point",
        "coordinates": [
          -71.4128,
          41.824
        ]
      }
    },
    {
      "type": "Feature",
      "id": "SC_1",
      "properties": {
        "st": "SC",
        "state": "South Carolina",
        "city": "Charleston",
        "wfo": "CHS",
        "gridX": 87,
        "gridY": 77
      },
      "geometry": {
        "type": "Point",
        "coordinates": [
          -79.9311,
          32.7765
        ]
      }
    },
    {
      "type": "Feature",
      "id": "SC_2",
      "properties": {
        "st": "SC",
        "state": "South Carolina",
        "city": "Greenville",
        "wfo": "GSP",
        "gridX": 64,
        "gridY": 43
      },
      "geometry": {
        "type": "Point",
        "coordinates": [
          -82.394,
          34.8526
        ]
      }
    },
    {
      "type": "Feature",
      "id": "SC_3",
      "properties": {
        "st": "SC",
        "state": "South Carolina",
        "city": "Columbia",
        "wfo": "CAE",
        "gridX": 65,
        "gridY": 61
      },
      "geometry": {
        "type": "Point",
        "coordinates": [
          -81.0348,
          34.0007
        ]
      }
    },
    {
      "type": "Feature",
      "id": "SC_4",
      "properties": {
        "st": "SC",
        "state": "South Carolina",
        "city": "Myrtle Beach",
        "wfo": "ILM",
        "gridX": 58,
        "gridY": 40
      },
      "geometry": {
        "type": "Point",
        "coordinates": [
          -78.8867,
          33.6891
        ]
      }
    },
    {
      "type": "Feature",
      "id": "SD_1",
      "properties": {
        "st": "SD",
        "state": "South Dakota",
        "city": "Sioux Falls",
        "wfo": "FSD",
        "gridX": 98,
        "gridY": 64
      },
      "geometry": {
        "type": "Point",
        "coordinates": [
          -96.7311,
          43.5446
        ]
      }
    },
    {
      "type": "Feature",
      "id": "SD_2",
      "properties": {
        "st": "SD",
        "state": "South Dakota",
        "city": "Rapid City",
        "wfo": "UNR",
        "gridX": 97,
        "gridY": 58
      },
      "geometry": {
        "type": "Point",
        "coordinates": [
          -103.231,
          44.0805
        ]
      }
    },
    {
      "type": "Feature",
      "id": "SD_3",
      "properties": {
        "st": "SD",
        "state": "South Dakota",
        "city": "Aberdeen",
        "wfo": "ABR",
        "gridX": 118,
        "gridY": 93
      },
      "geometry": {
        "type": "Point",
        "coordinates": [
          -98.4865,
          45.4647
        ]
      }
    },
    {
      "type": "Feature",
      "id": "TN_1",
      "properties": {
        "st": "TN",
        "state": "Tennessee",
        "city": "Nashville",
        "wfo": "OHX",
        "gridX": 50,
        "gridY": 57
      },
      "geometry": {
        "type": "Point",
        "coordinates": [
          -86.7816,
          36.1627
        ]
      }
    },
    {
      "type": "Feature",
      "id": "TN_2",
      "properties": {
        "st": "TN",
        "state": "Tennessee",
        "city": "Memphis",
        "wfo": "MEG",
        "gridX": 42,
        "gridY": 67
      },
      "geometry": {
        "type": "Point",
        "coordinates": [
          -90.049,
          35.1495
        ]
      }
    },
    {
      "type": "Feature",
      "id": "TN_3",
      "properties": {
        "st": "TN",
        "state": "Tennessee",
        "city": "Knoxville",
        "wfo": "MRX",
        "gridX": 71,
        "gridY": 51
      },
      "geometry": {
        "type": "Point",
        "coordinates": [
          -83.9207,
          35.9606
        ]
      }
    },
    {
      "type": "Feature",
      "id": "TN_4",
      "properties": {
        "st": "TN",
        "state": "Tennessee",
        "city": "Chattanooga",
        "wfo": "MRX",
        "gridX": 24,
        "gridY": 7
      },
      "geometry": {
        "type": "Point",
        "coordinates": [
          -85.3097,
          35.0456
        ]
      }
    },
    {
      "type": "Feature",
      "id": "TX_1",
      "properties": {
        "st": "TX",
        "state": "Texas",
        "city": "Dallas",
        "wfo": "FWD",
        "gridX": 89,
        "gridY": 104
      },
      "geometry": {
        "type": "Point",
        "coordinates": [
          -96.797,
          32.7767
        ]
      }
    },
    {
      "type": "Feature",
      "id": "TX_2",
      "properties": {
        "st": "TX",
        "state": "Texas",
        "city": "Houston",
        "wfo": "HGX",
        "gridX": 63,
        "gridY": 95
      },
      "geometry": {
        "type": "Point",
        "coordinates": [
          -95.3698,
          29.7604
        ]
      }
    },
    {
      "type": "Feature",
      "id": "TX_3",
      "properties": {
        "st": "TX",
        "state": "Texas",
        "city": "San Antonio",
        "wfo": "EWX",
        "gridX": 126,
        "gridY": 54
      },
      "geometry": {
        "type": "Point",
        "coordinates": [
          -98.4936,
          29.4241
        ]
      }
    },
    {
      "type": "Feature",
      "id": "TX_4",
      "properties": {
        "st": "TX",
        "state": "Texas",
        "city": "Austin",
        "wfo": "EWX",
        "gridX": 156,
        "gridY": 91
      },
      "geometry": {
        "type": "Point",
        "coordinates": [
          -97.7431,
          30.2672
        ]
      }
    },
    {
      "type": "Feature",
      "id": "UT_1",
      "properties": {
        "st": "UT",
        "state": "Utah",
        "city": "Salt Lake City",
        "wfo": "SLC",
        "gridX": 100,
        "gridY": 175
      },
      "geometry": {
        "type": "Point",
        "coordinates": [
          -111.891,
          40.7608
        ]
      }
    },
    {
      "type": "Feature",
      "id": "UT_2",
      "properties": {
        "st": "UT",
        "state": "Utah",
        "city": "Provo",
        "wfo": "SLC",
        "gridX": 105,
        "gridY": 151
      },
      "geometry": {
        "type": "Point",
        "coordinates": [
          -111.6585,
          40.2338
        ]
      }
    },
    {
      "type": "Feature",
      "id": "UT_3",
      "properties": {
        "st": "UT",
        "state": "Utah",
        "city": "St. George",
        "wfo": "SLC",
        "gridX": 20,
        "gridY": 19
      },
      "geometry": {
        "type": "Point",
        "coordinates": [
          -113.5684,
          37.0965
        ]
      }
    },
    {
      "type": "Feature",
      "id": "VA_1",
      "properties": {
        "st": "VA",
        "state": "Virginia",
        "city": "Richmond",
        "wfo": "AKQ",
        "gridX": 46,
        "gridY": 77
      },
      "geometry": {
        "type": "Point",
        "coordinates": [
          -77.436,
          37.5407
        ]
      }
    },
    {
      "type": "Feature",
      "id": "VA_2",
      "properties": {
        "st": "VA",
        "state": "Virginia",
        "city": "Virginia Beach",
        "wfo": "AKQ",
        "gridX": 101,
        "gridY": 53
      },
      "geometry": {
        "type": "Point",
        "coordinates": [
          -75.978,
          36.8529
        ]
      }
    },
    {
      "type": "Feature",
      "id": "VA_3",
      "properties": {
        "st": "VA",
        "state": "Virginia",
        "city": "Roanoke",
        "wfo": "RNK",
        "gridX": 74,
        "gridY": 69
      },
      "geometry": {
        "type": "Point",
        "coordinates": [
          -79.9414,
          37.2709
        ]
      }
    },
    {
      "type": "Feature",
      "id": "VA_4",
      "properties": {
        "st": "VA",
        "state": "Virginia",
        "city": "Charlottesville",
        "wfo": "LWX",
        "gridX": 51,
        "gridY": 26
      },
      "geometry": {
        "type": "Point",
        "coordinates": [
          -78.4767,
          38.0293
        ]
      }
    },
    {
      "type": "Feature",
      "id": "VT_1",
      "properties": {
        "st": "VT",
        "state": "Vermont",
        "city": "Burlington",
        "wfo": "BTV",
        "gridX": 89,
        "gridY": 56
      },
      "geometry": {
        "type": "Point",
        "coordinates": [
          -73.2121,
          44.4759
        ]
      }
    },
    {
      "type": "Feature",
      "id": "VT_2",
      "properties": {
        "st": "VT",
        "state": "Vermont",
        "city": "Rutland",
        "wfo": "BTV",
        "gridX": 103,
        "gridY": 18
      },
      "geometry": {
        "type": "Point",
        "coordinates": [
          -72.9726,
          43.6106
        ]
      }
    },
    {
      "type": "Feature",
      "id": "WA_1",
      "properties": {
        "st": "WA",
        "state": "Washington",
        "city": "Seattle",
        "wfo": "SEW",
        "gridX": 125,
        "gridY": 68
      },
      "geometry": {
        "type": "Point",
        "coordinates": [
          -122.3321,
          47.6062
        ]
      }
    },
    {
      "type": "Feature",
      "id": "WA_2",
      "properties": {
        "st": "WA",
        "state": "Washington",
        "city": "Spokane",
        "wfo": "OTX",
        "gridX": 140,
        "gridY": 90
      },
      "geometry": {
        "type": "Point",
        "coordinates": [
          -117.426,
          47.6588
        ]
      }
    },
    {
      "type": "Feature",
      "id": "WA_3",
      "properties": {
        "st": "WA",
        "state": "Washington",
        "city": "Tri-Cities",
        "wfo": "PDT",
        "gridX": 126,
        "gridY": 127
      },
      "geometry": {
        "type": "Point",
        "coordinates": [
          -119.09,
          46.23
        ]
      }
    },
    {
      "type": "Feature",
      "id": "WA_4",
      "properties": {
        "st": "WA",
        "state": "Washington",
        "city": "Bellingham",
        "wfo": "SEW",
        "gridX": 131,
        "gridY": 123
      },
      "geometry": {
        "type": "Point",
        "coordinates": [
          -122.4787,
          48.7519
        ]
      }
    },
    {
      "type": "Feature",
      "id": "WI_1",
      "properties": {
        "st": "WI",
        "state": "Wisconsin",
        "city": "Milwaukee",
        "wfo": "MKX",
        "gridX": 88,
        "gridY": 65
      },
      "geometry": {
        "type": "Point",
        "coordinates": [
          -87.9065,
          43.0389
        ]
      }
    },
    {
      "type": "Feature",
      "id": "WI_2",
      "properties": {
        "st": "WI",
        "state": "Wisconsin",
        "city": "Madison",
        "wfo": "MKX",
        "gridX": 38,
        "gridY": 64
      },
      "geometry": {
        "type": "Point",
        "coordinates": [
          -89.4012,
          43.0731
        ]
      }
    },
    {
      "type": "Feature",
      "id": "WI_3",
      "properties": {
        "st": "WI",
        "state": "Wisconsin",
        "city": "Green Bay",
        "wfo": "GRB",
        "gridX": 79,
        "gridY": 32
      },
      "geometry": {
        "type": "Point",
        "coordinates": [
          -88.0133,
          44.5133
        ]
      }
    },
    {
      "type": "Feature",
      "id": "WI_4",
      "properties": {
        "st": "WI",
        "state": "Wisconsin",
        "city": "Eau Claire",
        "wfo": "MPX",
        "gridX": 167,
        "gridY": 65
      },
      "geometry": {
        "type": "Point",
        "coordinates": [
          -91.4985,
          44.8113
        ]
      }
    },
    {
      "type": "Feature",
      "id": "WV_1",
      "properties": {
        "st": "WV",
        "state": "West Virginia",
        "city": "Charleston",
        "wfo": "RLX",
        "gridX": 63,
        "gridY": 67
      },
      "geometry": {
        "type": "Point",
        "coordinates": [
          -81.6326,
          38.3498
        ]
      }
    },
    {
      "type": "Feature",
      "id": "WV_2",
      "properties": {
        "st": "WV",
        "state": "West Virginia",
        "city": "Huntington",
        "wfo": "RLX",
        "gridX": 34,
        "gridY": 68
      },
      "geometry": {
        "type": "Point",
        "coordinates": [
          -82.4452,
          38.4192
        ]
      }
    },
    {
      "type": "Feature",
      "id": "WV_3",
      "properties": {
        "st": "WV",
        "state": "West Virginia",
        "city": "Morgantown",
        "wfo": "PBZ",
        "gridX": 83,
        "gridY": 30
      },
      "geometry": {
        "type": "Point",
        "coordinates": [
          -79.9559,
          39.6295
        ]
      }
    },
    {
      "type": "Feature",
      "id": "WY_1",
      "properties": {
        "st": "WY",
        "state": "Wyoming",
        "city": "Cheyenne",
        "wfo": "CYS",
        "gridX": 110,
        "gridY": 14
      },
      "geometry": {
        "type": "Point",
        "coordinates": [
          -104.8202,
          41.14
        ]
      }
    },
    {
      "type": "Feature",
      "id": "WY_2",
      "properties": {
        "st": "WY",
        "state": "Wyoming",
        "city": "Jackson",
        "wfo": "RIW",
        "gridX": 42,
        "gridY": 139
      },
      "geometry": {
        "type": "Point",
        "coordinates": [
          -110.7624,
          43.4799
        ]
      }
    },
    {
      "type": "Feature",
      "id": "WY_3",
      "properties": {
        "st": "WY",
        "state": "Wyoming",
        "city": "Casper",
        "wfo": "RIW",
        "gridX": 187,
        "gridY": 95
      },
      "geometry": {
        "type": "Point",
        "coordinates": [
          -106.3252,
          42.8501
        ]
      }
    },
    {
      "type": "Feature",
      "id": "WA_5",
      "properties": {
        "st": "WA",
        "state": "Washington",
        "city": "Tacoma",
        "wfo": "SEW",
        "gridX": 118,
        "gridY": 52
      },
      "geometry": {
        "type": "Point",
        "coordinates": [
          -122.4443,
          47.2529
        ]
      }
    },
    {
      "type": "Feature",
      "id": "WA_6",
      "properties": {
        "st": "WA",
        "state": "Washington",
        "city": "Olympia",
        "wfo": "SEW",
        "gridX": 101,
        "gridY": 45
      },
      "geometry": {
        "type": "Point",
        "coordinates": [
          -122.9007,
          47.0379
        ]
      }
    },
    {
      "type": "Feature",
      "id": "WA_7",
      "properties": {
        "st": "WA",
        "state": "Washington",
        "city": "Everett",
        "wfo": "SEW",
        "gridX": 132,
        "gridY": 85
      },
      "geometry": {
        "type": "Point",
        "coordinates": [
          -122.2021,
          47.979
        ]
      }
    },
    {
      "type": "Feature",
      "id": "WA_8",
      "properties": {
        "st": "WA",
        "state": "Washington",
        "city": "Yakima",
        "wfo": "PDT",
        "gridX": 84,
        "gridY": 153
      },
      "geometry": {
        "type": "Point",
        "coordinates": [
          -120.5059,
          46.6021
        ]
      }
    },
    {
      "type": "Feature",
      "id": "WA_9",
      "properties": {
        "st": "WA",
        "state": "Washington",
        "city": "Wenatchee",
        "wfo": "OTX",
        "gridX": 47,
        "gridY": 95
      },
      "geometry": {
        "type": "Point",
        "coordinates": [
          -120.3103,
          47.4235
        ]
      }
    },
    {
      "type": "Feature",
      "id": "WA_10",
      "properties": {
        "st": "WA",
        "state": "Washington",
        "city": "Mount Vernon",
        "wfo": "SEW",
        "gridX": 132,
        "gridY": 106
      },
      "geometry": {
        "type": "Point",
        "coordinates": [
          -122.3343,
          48.4226
        ]
      }
    },
    {
      "type": "Feature",
      "id": "WA_11",
      "properties": {
        "st": "WA",
        "state": "Washington",
        "city": "Aberdeen",
        "wfo": "SEW",
        "gridX": 72,
        "gridY": 48
      },
      "geometry": {
        "type": "Point",
        "coordinates": [
          -123.8154,
          46.9757
        ]
      }
    },
    {
      "type": "Feature",
      "id": "WA_12",
      "properties": {
        "st": "WA",
        "state": "Washington",
        "city": "Walla Walla",
        "wfo": "PDT",
        "gridX": 149,
        "gridY": 115
      },
      "geometry": {
        "type": "Point",
        "coordinates": [
          -118.343,
          46.0646
        ]
      }
    },
    {
      "type": "Feature",
      "id": "OR_5",
      "properties": {
        "st": "OR",
        "state": "Oregon",
        "city": "Salem",
        "wfo": "PQR",
        "gridX": 96,
        "gridY": 80
      },
      "geometry": {
        "type": "Point",
        "coordinates": [
         -123.0351,
          44.9429
        ]
      }
    },
    {
      "type": "Feature",
      "id": "OR_6",
      "properties": {
        "st": "OR",
        "state": "Oregon",
        "city": "Corvallis",
        "wfo": "PQR",
        "gridX": 85,
        "gridY": 64
      },
      "geometry": {
        "type": "Point",
        "coordinates": [
          -123.262,
          44.5646
        ]
      }
    },
    {
      "type": "Feature",
      "id": "OR_7",
      "properties": {
        "st": "OR",
        "state": "Oregon",
        "city": "Roseburg",
        "wfo": "MFR",
        "gridX": 98,
        "gridY": 116
      },
      "geometry": {
        "type": "Point",
        "coordinates": [
          -123.3417,
          43.2165
        ]
      }
    },
    {
      "type": "Feature",
      "id": "OR_8",
      "properties": {
        "st": "OR",
        "state": "Oregon",
        "city": "Klamath Falls",
        "wfo": "MFR",
        "gridX": 141,
        "gridY": 61
      },
      "geometry": {
        "type": "Point",
        "coordinates": [
          -121.7817,
          42.2249
        ]
      }
    },
    {
      "type": "Feature",
      "id": "OR_9",
      "properties": {
        "st": "OR",
        "state": "Oregon",
        "city": "Pendleton",
        "wfo": "PDT",
        "gridX": 132,
        "gridY": 100
      },
      "geometry": {
        "type": "Point",
        "coordinates": [
          -118.7886,
          45.6721
        ]
      }
    },
    {
      "type": "Feature",
      "id": "OR_10",
      "properties": {
        "st": "OR",
        "state": "Oregon",
        "city": "Astoria",
        "wfo": "PQR",
        "gridX": 82,
        "gridY": 142
      },
      "geometry": {
        "type": "Point",
        "coordinates": [
          -123.8313,
          46.1879
        ]
      }
    },
    {
      "type": "Feature",
      "id": "ID_5",
      "properties": {
        "st": "ID",
        "state": "Idaho",
        "city": "Twin Falls",
        "wfo": "BOI",
        "gridX": 184,
        "gridY": 29
      },
      "geometry": {
        "type": "Point",
        "coordinates": [
          -114.4609,
          42.563
        ]
      }
    },
    {
      "type": "Feature",
      "id": "ID_6",
      "properties": {
        "st": "ID",
        "state": "Idaho",
        "city": "Lewiston",
        "wfo": "OTX",
        "gridX": 144,
        "gridY": 30
      },
      "geometry": {
        "type": "Point",
        "coordinates": [
          -117.0177,
          46.4165
        ]
      }
    },
    {
      "type": "Feature",
      "id": "ID_7",
      "properties": {
        "st": "ID",
        "state": "Idaho",
        "city": "Sandpoint",
        "wfo": "OTX",
        "gridX": 173,
        "gridY": 115
      },
      "geometry": {
        "type": "Point",
      "coordinates": [
          -116.5531,
          48.2766
        ]
      }
    },
    {
      "type": "Feature",
      "id": "ID_8",
      "properties": {
        "st": "ID",
        "state": "Idaho",
        "city": "Moscow",
        "wfo": "OTX",
        "gridX": 147,
        "gridY": 44
      },
      "geometry": {
        "type": "Point",
        "coordinates": [
          -117.0002,
          46.7324
        ]
      }
    },
    {
      "type": "Feature",
      "id": "AK_1",
      "properties": {
        "st": "AK",
        "state": "Alaska",
        "city": "Anchorage",
        "country": "US"
      },
      "geometry": {
        "type": "Point",
        "coordinates": [
          -149.9003,
          61.2181
        ]
      }
    },
    {
      "type": "Feature",
      "id": "AK_2",
      "properties": {
        "st": "AK",
        "state": "Alaska",
        "city": "Fairbanks",
        "country": "US"
      },
      "geometry": {
        "type": "Point",
        "coordinates": [
          -147.7164,
          64.8378
        ]
      }
    },
    {
      "type": "Feature",
      "id": "AK_3",
      "properties": {
        "st": "AK",
        "state": "Alaska",
        "city": "Juneau",
        "country": "US"
      },
      "geometry": {
        "type": "Point",
        "coordinates": [
          -134.4197,
          58.3019
        ]
      }
    },
    {
      "type": "Feature",
      "id": "CAN_1",
      "properties": {
        "st": "BC",
        "state": "British Columbia",
        "city": "Vancouver",
        "country": "CA"
      },
      "geometry": {
        "type": "Point",
        "coordinates": [
          -123.1207,
          49.2827
        ]
      }
    },
    {
      "type": "Feature",
      "id": "CAN_2",
      "properties": {
        "st": "AB",
        "state": "Alberta",
        "city": "Calgary",
        "country": "CA"
      },
      "geometry": {
        "type": "Point",
        "coordinates": [
          -114.0719,
          51.0447
        ]
      }
    },
    {
      "type": "Feature",
      "id": "CAN_3",
      "properties": {
        "st": "AB",
        "state": "Alberta",
        "city": "Edmonton",
        "country": "CA"
      },
      "geometry": {
        "type": "Point",
        "coordinates": [
          -113.4938,
          53.5461
        ]
      }
    },
    {
      "type": "Feature",
      "id": "CAN_4",
      "properties": {
        "st": "MB",
        "state": "Manitoba",
        "city": "Winnipeg",
        "country": "CA"
      },
      "geometry": {
        "type": "Point",
        "coordinates": [
          -97.1384,
          49.8951
        ]
      }
    },
    {
      "type": "Feature",
      "id": "CAN_5",
      "properties": {
        "st": "ON",
        "state": "Ontario",
        "city": "Toronto",
        "country": "CA"
      },
      "geometry": {
        "type": "Point",
        "coordinates": [
          -79.3832,
          43.6532
        ]
      }
    },
    {
      "type": "Feature",
      "id": "CAN_6",
      "properties": {
        "st": "QC",
        "state": "Quebec",
        "city": "Montreal",
        "country": "CA"
      },
      "geometry": {
        "type": "Point",
        "coordinates": [
          -73.5673,
          45.5017
        ]
      }
    },
    {
      "type": "Feature",
      "id": "CAN_7",
      "properties": {
        "st": "NS",
        "state": "Nova Scotia",
        "city": "Halifax",
        "country": "CA"
      },
      "geometry": {
        "type": "Point",
        "coordinates": [
          -63.5752,
          44.6488
        ]
      }
    },
    {
      "type": "Feature",
      "id": "CAN_8",
      "properties": {
        "st": "YT",
        "state": "Yukon",
        "city": "Whitehorse",
        "country": "CA"
      },
      "geometry": {
        "type": "Point",
        "coordinates": [
          -135.0568,
          60.7212
        ]
      }
    },
    {
      "type": "Feature",
      "id": "CAN_9",
      "properties": {
        "st": "NT",
        "state": "Northwest Territories",
        "city": "Yellowknife",
        "country": "CA"
      },
      "geometry": {
        "type": "Point",
        "coordinates": [
          -114.3718,
          62.4540
        ]
      }
    }
  ]
}
